index,client_iso_time,server_time_ms,q0,q1,q2,q3,roll_deg,pitch_deg,yaw_deg,latency_es_ms,latency_sc_ms,latency_total_ms
1,2026-04-07T10:49:46.556Z,1775558986916,0.998253,-0.005504,-0.009438,0.000042,-0.6298,-1.0797,0.0108,0,-360,-360
2,2026-04-07T10:49:46.559Z,1775558986916,0.998245,-0.005745,-0.010056,0.000057,-0.6574,-1.1504,0.0131,0,-357,-357
3,2026-04-07T10:49:46.561Z,1775558986916,0.998241,-0.005873,-0.010402,0.000066,-0.6721,-1.1899,0.0146,0,-355,-355
4,2026-04-07T10:49:46.563Z,1775558986916,0.998237,-0.006083,-0.010670,0.000076,-0.6961,-1.2206,0.0161,0,-353,-353
5,2026-04-07T10:49:46.564Z,1775558986917,0.998235,-0.006204,-0.010746,0.000087,-0.7100,-1.2293,0.0176,0,-353,-353
6,2026-04-07T10:49:46.566Z,1775558986917,0.998233,-0.006348,-0.010889,0.000093,-0.7264,-1.2456,0.0186,0,-351,-351
7,2026-04-07T10:49:46.568Z,1775558986917,0.998232,-0.006338,-0.010988,0.000096,-0.7253,-1.2569,0.0190,0,-349,-349
8,2026-04-07T10:49:46.570Z,1775558986917,0.998233,-0.006323,-0.010869,0.000093,-0.7236,-1.2433,0.0185,0,-347,-347
9,2026-04-07T10:49:46.589Z,1775558986949,0.998233,-0.006270,-0.010911,0.000095,-0.7175,-1.2481,0.0187,0,-360,-360
10,2026-04-07T10:49:46.757Z,1775558987118,0.998241,-0.005991,-0.010343,0.000086,-0.6856,-1.1832,0.0169,30,-361,-331
11,2026-04-07T10:49:46.759Z,1775558987118,0.998243,-0.005977,-0.010142,0.000076,-0.6840,-1.1602,0.0156,30,-359,-329
12,2026-04-07T10:49:46.763Z,1775558987118,0.998246,-0.006021,-0.009858,-0.000184,-0.6887,-1.1279,-0.0142,30,-355,-325
13,2026-04-07T10:49:46.795Z,1775558987155,0.998246,-0.005853,-0.009902,-0.000296,-0.6693,-1.1330,-0.0272,30,-360,-330
14,2026-04-07T10:49:46.866Z,1775558987225,0.998246,-0.005843,-0.009949,-0.000398,-0.6681,-1.1384,-0.0389,30,-359,-329
15,2026-04-07T10:49:46.897Z,1775558987258,0.998246,-0.005774,-0.009964,-0.000506,-0.6601,-1.1402,-0.0513,30,-361,-331
16,2026-04-07T10:49:46.968Z,1775558987328,0.998244,-0.005942,-0.010102,-0.000619,-0.6791,-1.1561,-0.0639,30,-360,-330
17,2026-04-07T10:49:47.001Z,1775558987361,0.998242,-0.005925,-0.010192,-0.000726,-0.6771,-1.1664,-0.0761,30,-360,-330
18,2026-04-07T10:49:47.038Z,1775558987398,0.998241,-0.005963,-0.010282,-0.000835,-0.6813,-1.1768,-0.0885,30,-360,-330
19,2026-04-07T10:49:47.110Z,1775558987471,0.998241,-0.005983,-0.010333,-0.000923,-0.6835,-1.1827,-0.0985,30,-361,-331
20,2026-04-07T10:49:47.146Z,1775558987506,0.998240,-0.006038,-0.010386,-0.001024,-0.6896,-1.1888,-0.1100,30,-360,-330
21,2026-04-07T10:49:47.230Z,1775558987589,0.998239,-0.005913,-0.010458,-0.001131,-0.6752,-1.1971,-0.1223,30,-359,-329
22,2026-04-07T10:49:47.271Z,1775558987628,0.998239,-0.005892,-0.010560,-0.001224,-0.6727,-1.2089,-0.1329,30,-357,-327
23,2026-04-07T10:49:47.302Z,1775558987661,0.998239,-0.006021,-0.010428,-0.001334,-0.6873,-1.1939,-0.1454,30,-359,-329
24,2026-04-07T10:49:47.338Z,1775558987698,0.998238,-0.006101,-0.010408,-0.001439,-0.6963,-1.1917,-0.1574,30,-360,-330
25,2026-04-07T10:49:47.418Z,1775558987778,0.998238,-0.006033,-0.010461,-0.001529,-0.6884,-1.1978,-0.1677,30,-360,-330
26,2026-04-07T10:49:47.463Z,1775558987820,0.998239,-0.005985,-0.010414,-0.001628,-0.6828,-1.1925,-0.1791,30,-357,-327
27,2026-04-07T10:49:47.491Z,1775558987852,0.998241,-0.005887,-0.010248,-0.001716,-0.6716,-1.1735,-0.1894,30,-361,-331
28,2026-04-07T10:49:47.568Z,1775558987927,0.998240,-0.005906,-0.010272,-0.001795,-0.6736,-1.1763,-0.1984,30,-359,-329
29,2026-04-07T10:49:47.605Z,1775558987963,0.998241,-0.005914,-0.010194,-0.001884,-0.6745,-1.1674,-0.2086,30,-358,-328
30,2026-04-07T10:49:47.693Z,1775558988053,0.998240,-0.005950,-0.010280,-0.001958,-0.6785,-1.1773,-0.2170,30,-360,-330
31,2026-04-07T10:49:47.782Z,1775558988142,0.998240,-0.005903,-0.010283,-0.002051,-0.6730,-1.1777,-0.2277,30,-360,-330
32,2026-04-07T10:49:47.784Z,1775558988142,0.998240,-0.005772,-0.010285,-0.002151,-0.6579,-1.1780,-0.2393,30,-358,-328
33,2026-04-07T10:49:47.812Z,1775558988172,0.998240,-0.005587,-0.010455,-0.002210,-0.6366,-1.1974,-0.2462,30,-360,-330
34,2026-04-07T10:49:47.841Z,1775558988200,0.998240,-0.005672,-0.010399,-0.002294,-0.6462,-1.1911,-0.2557,30,-359,-329
35,2026-04-07T10:49:47.909Z,1775558988269,0.998240,-0.005738,-0.010324,-0.002366,-0.6537,-1.1826,-0.2639,30,-360,-330
36,2026-04-07T10:49:47.946Z,1775558988306,0.998241,-0.005671,-0.010211,-0.002453,-0.6460,-1.1697,-0.2740,30,-360,-330
37,2026-04-07T10:49:48.024Z,1775558988385,0.998239,-0.005759,-0.010381,-0.002520,-0.6559,-1.1892,-0.2815,30,-361,-331
38,2026-04-07T10:49:48.056Z,1775558988416,0.998239,-0.005778,-0.010332,-0.002589,-0.6580,-1.1837,-0.2894,30,-360,-330
39,2026-04-07T10:49:48.090Z,1775558988450,0.998238,-0.005877,-0.010300,-0.002649,-0.6693,-1.1801,-0.2961,30,-360,-330
40,2026-04-07T10:49:48.162Z,1775558988521,0.998239,-0.005947,-0.010151,-0.002715,-0.6773,-1.1631,-0.3037,30,-359,-329
41,2026-04-07T10:49:48.189Z,1775558988550,0.998239,-0.005900,-0.010185,-0.002755,-0.6718,-1.1670,-0.3083,30,-361,-331
42,2026-04-07T10:49:48.259Z,1775558988619,0.998238,-0.005960,-0.010233,-0.002828,-0.6786,-1.1726,-0.3166,30,-360,-330
43,2026-04-07T10:49:48.296Z,1775558988654,0.998236,-0.005934,-0.010447,-0.002881,-0.6755,-1.1971,-0.3225,30,-358,-328
44,2026-04-07T10:49:48.369Z,1775558988726,0.998236,-0.005822,-0.010459,-0.002933,-0.6626,-1.1984,-0.3286,30,-357,-327
45,2026-04-07T10:49:48.399Z,1775558988758,0.998237,-0.005913,-0.010364,-0.002994,-0.6730,-1.1876,-0.3355,30,-359,-329
46,2026-04-07T10:49:48.462Z,1775558988822,0.998237,-0.005829,-0.010336,-0.003049,-0.6633,-1.1845,-0.3419,30,-360,-330
47,2026-04-07T10:49:48.490Z,1775558988851,0.998236,-0.005793,-0.010439,-0.003112,-0.6591,-1.1963,-0.3491,30,-361,-331
48,2026-04-07T10:49:48.568Z,1775558988927,0.998238,-0.005751,-0.010296,-0.003176,-0.6543,-1.1799,-0.3566,30,-359,-329
49,2026-04-07T10:49:48.619Z,1775558988978,0.998239,-0.005732,-0.010206,-0.003242,-0.6520,-1.1697,-0.3642,30,-359,-329
50,2026-04-07T10:49:48.647Z,1775558989006,0.998237,-0.005765,-0.010277,-0.003289,-0.6557,-1.1778,-0.3695,30,-359,-329
51,2026-04-07T10:49:48.710Z,1775558989070,0.998235,-0.005824,-0.010420,-0.003348,-0.6624,-1.1943,-0.3761,30,-360,-330
52,2026-04-07T10:49:48.741Z,1775558989101,0.998235,-0.005742,-0.010480,-0.003396,-0.6529,-1.2011,-0.3817,30,-360,-330
53,2026-04-07T10:49:48.810Z,1775558989169,0.998236,-0.005659,-0.010386,-0.003456,-0.6434,-1.1904,-0.3887,30,-359,-329
54,2026-04-07T10:49:48.836Z,1775558989196,0.998235,-0.005801,-0.010384,-0.003502,-0.6596,-1.1902,-0.3938,30,-360,-330
55,2026-04-07T10:49:48.909Z,1775558989268,0.998233,-0.005911,-0.010486,-0.003551,-0.6721,-1.2020,-0.3992,30,-359,-329
56,2026-04-07T10:49:48.933Z,1775558989293,0.998234,-0.005884,-0.010438,-0.003587,-0.6689,-1.1965,-0.4034,30,-360,-330
57,2026-04-07T10:49:49.012Z,1775558989373,0.998234,-0.005892,-0.010382,-0.003621,-0.6698,-1.1901,-0.4073,30,-361,-331
58,2026-04-07T10:49:49.050Z,1775558989410,0.998234,-0.005973,-0.010340,-0.003648,-0.6791,-1.1854,-0.4103,30,-360,-330
59,2026-04-07T10:49:49.168Z,1775558989470,0.998233,-0.006013,-0.010388,-0.003675,-0.6836,-1.1909,-0.4133,30,-302,-272
60,2026-04-07T10:49:49.424Z,1775558989784,0.998235,-0.006156,-0.010169,-0.003703,-0.7000,-1.1659,-0.4165,30,-360,-330
61,2026-04-07T10:49:49.427Z,1775558989784,0.998236,-0.005955,-0.010176,-0.003746,-0.6770,-1.1667,-0.4217,30,-357,-327
62,2026-04-07T10:49:49.429Z,1775558989784,0.998235,-0.005889,-0.010245,-0.003782,-0.6694,-1.1746,-0.4258,30,-355,-325
63,2026-04-07T10:49:49.431Z,1775558989785,0.998235,-0.005882,-0.010302,-0.003818,-0.6685,-1.1811,-0.4299,30,-354,-324
64,2026-04-07T10:49:49.433Z,1775558989785,0.998235,-0.005888,-0.010249,-0.003828,-0.6692,-1.1750,-0.4311,30,-352,-322
65,2026-04-07T10:49:49.435Z,1775558989785,0.998237,-0.005785,-0.010141,-0.003858,-0.6574,-1.1627,-0.4347,30,-350,-320
66,2026-04-07T10:49:49.460Z,1775558989818,0.998236,-0.005765,-0.010199,-0.003897,-0.6551,-1.1693,-0.4391,30,-358,-328
67,2026-04-07T10:49:49.486Z,1775558989846,0.998236,-0.005832,-0.010176,-0.003912,-0.6627,-1.1667,-0.4408,30,-360,-330
68,2026-04-07T10:49:49.567Z,1775558989926,0.998235,-0.005862,-0.010208,-0.003927,-0.6661,-1.1704,-0.4424,30,-359,-329
69,2026-04-07T10:49:49.601Z,1775558989961,0.998235,-0.005955,-0.010144,-0.003968,-0.6767,-1.1632,-0.4471,30,-360,-330
70,2026-04-07T10:49:49.657Z,1775558990017,0.998235,-0.005943,-0.010150,-0.004008,-0.6753,-1.1639,-0.4517,30,-360,-330
71,2026-04-07T10:49:49.693Z,1775558990053,0.998234,-0.005966,-0.010229,-0.004035,-0.6779,-1.1729,-0.4547,30,-360,-330
72,2026-04-07T10:49:49.763Z,1775558990121,0.998234,-0.005939,-0.010240,-0.004059,-0.6748,-1.1742,-0.4574,30,-358,-328
73,2026-04-07T10:49:49.795Z,1775558990156,0.998234,-0.005920,-0.010274,-0.004086,-0.6725,-1.1781,-0.4605,30,-361,-331
74,2026-04-07T10:49:49.866Z,1775558990226,0.998232,-0.006035,-0.010353,-0.004104,-0.6856,-1.1872,-0.4624,30,-360,-330
75,2026-04-07T10:49:49.897Z,1775558990257,0.998234,-0.005970,-0.010195,-0.004141,-0.6782,-1.1691,-0.4668,30,-360,-330
76,2026-04-07T10:49:49.971Z,1775558990331,0.998234,-0.005920,-0.010210,-0.004142,-0.6725,-1.1708,-0.4670,30,-360,-330
77,2026-04-07T10:49:49.998Z,1775558990357,0.998233,-0.005875,-0.010346,-0.004148,-0.6673,-1.1863,-0.4676,30,-359,-329
78,2026-04-07T10:49:50.066Z,1775558990425,0.998234,-0.005972,-0.010143,-0.004171,-0.6784,-1.1632,-0.4703,30,-359,-329
79,2026-04-07T10:49:50.095Z,1775558990454,0.998233,-0.006080,-0.010232,-0.004202,-0.6907,-1.1734,-0.4736,30,-359,-329
80,2026-04-07T10:49:50.135Z,1775558990496,0.998231,-0.006140,-0.010309,-0.004228,-0.6975,-1.1823,-0.4765,30,-361,-331
81,2026-04-07T10:49:50.211Z,1775558990571,0.998230,-0.006215,-0.010332,-0.004261,-0.7061,-1.1850,-0.4802,30,-360,-330
82,2026-04-07T10:49:50.240Z,1775558990600,0.998229,-0.006245,-0.010445,-0.004272,-0.7094,-1.1979,-0.4813,30,-360,-330
83,2026-04-07T10:49:50.321Z,1775558990681,0.998229,-0.006205,-0.010455,-0.004285,-0.7048,-1.1991,-0.4828,30,-360,-330
84,2026-04-07T10:49:50.351Z,1775558990710,0.998229,-0.006157,-0.010476,-0.004302,-0.6993,-1.2015,-0.4848,30,-359,-329
85,2026-04-07T10:49:50.411Z,1775558990772,0.998228,-0.006175,-0.010525,-0.004317,-0.7013,-1.2071,-0.4865,30,-361,-331
86,2026-04-07T10:49:50.447Z,1775558990806,0.998228,-0.006171,-0.010538,-0.004327,-0.7008,-1.2086,-0.4876,30,-359,-329
87,2026-04-07T10:49:50.519Z,1775558990879,0.998228,-0.006212,-0.010549,-0.004318,-0.7055,-1.2098,-0.4865,30,-360,-330
88,2026-04-07T10:49:50.554Z,1775558990914,0.998228,-0.006241,-0.010507,-0.004338,-0.7089,-1.2051,-0.4888,30,-360,-330
89,2026-04-07T10:49:50.611Z,1775558990971,0.998229,-0.006240,-0.010431,-0.004360,-0.7087,-1.1964,-0.4914,30,-360,-330
90,2026-04-07T10:49:50.638Z,1775558990998,0.998229,-0.006068,-0.010544,-0.004406,-0.6890,-1.2093,-0.4968,30,-360,-330
91,2026-04-07T10:49:50.709Z,1775558991068,0.998228,-0.006031,-0.010565,-0.004432,-0.6847,-1.2117,-0.4998,30,-359,-329
92,2026-04-07T10:49:50.740Z,1775558991099,0.998230,-0.005931,-0.010460,-0.004449,-0.6733,-1.1996,-0.5019,30,-359,-329
93,2026-04-07T10:49:50.806Z,1775558991166,0.998230,-0.005960,-0.010417,-0.004479,-0.6766,-1.1947,-0.5053,30,-360,-330
94,2026-04-07T10:49:50.832Z,1775558991191,0.998229,-0.005970,-0.010493,-0.004486,-0.6777,-1.2034,-0.5061,30,-359,-329
95,2026-04-07T10:49:50.907Z,1775558991266,0.998229,-0.005994,-0.010473,-0.004501,-0.6804,-1.2012,-0.5078,30,-359,-329
96,2026-04-07T10:49:50.959Z,1775558991318,0.998229,-0.006103,-0.010402,-0.004535,-0.6929,-1.1931,-0.5116,30,-359,-329
97,2026-04-07T10:49:50.987Z,1775558991346,0.998230,-0.006115,-0.010302,-0.004539,-0.6943,-1.1817,-0.5121,30,-359,-329
98,2026-04-07T10:49:51.055Z,1775558991415,0.998231,-0.006092,-0.010240,-0.004558,-0.6917,-1.1746,-0.5144,30,-360,-330
99,2026-04-07T10:49:51.086Z,1775558991447,0.998232,-0.006061,-0.010195,-0.004581,-0.6881,-1.1695,-0.5171,30,-361,-331
100,2026-04-07T10:49:51.175Z,1775558991536,0.998232,-0.006078,-0.010168,-0.004597,-0.6901,-1.1664,-0.5189,30,-361,-331
101,2026-04-07T10:49:51.201Z,1775558991561,0.998230,-0.006144,-0.010247,-0.004616,-0.6975,-1.1755,-0.5209,30,-360,-330
102,2026-04-07T10:49:51.255Z,1775558991615,0.998231,-0.006091,-0.010220,-0.004616,-0.6915,-1.1724,-0.5210,30,-360,-330
103,2026-04-07T10:49:51.280Z,1775558991641,0.998231,-0.005940,-0.010284,-0.004620,-0.6742,-1.1796,-0.5216,30,-361,-331
104,2026-04-07T10:49:51.357Z,1775558991715,0.998231,-0.005954,-0.010326,-0.004637,-0.6757,-1.1844,-0.5235,30,-358,-328
105,2026-04-07T10:49:51.381Z,1775558991741,0.998230,-0.005981,-0.010397,-0.004634,-0.6788,-1.1926,-0.5231,30,-360,-330
106,2026-04-07T10:49:51.460Z,1775558991818,0.998230,-0.005994,-0.010314,-0.004651,-0.6803,-1.1831,-0.5251,30,-358,-328
107,2026-04-07T10:49:51.485Z,1775558991844,0.998230,-0.006080,-0.010236,-0.004682,-0.6902,-1.1742,-0.5286,30,-359,-329
108,2026-04-07T10:49:51.564Z,1775558991923,0.998231,-0.006038,-0.010242,-0.004688,-0.6853,-1.1749,-0.5293,30,-359,-329
109,2026-04-07T10:49:51.594Z,1775558991952,0.998231,-0.005944,-0.010260,-0.004710,-0.6745,-1.1769,-0.5319,30,-358,-328
110,2026-04-07T10:49:51.878Z,1775558992238,0.998230,-0.005890,-0.010322,-0.004728,-0.6683,-1.1840,-0.5340,30,-360,-330
111,2026-04-07T10:49:51.881Z,1775558992239,0.998231,-0.005970,-0.010239,-0.004742,-0.6775,-1.1746,-0.5355,30,-358,-328
112,2026-04-07T10:49:51.885Z,1775558992239,0.998231,-0.006006,-0.010192,-0.004745,-0.6816,-1.1692,-0.5359,30,-354,-324
113,2026-04-07T10:49:51.888Z,1775558992239,0.998231,-0.005980,-0.010183,-0.004753,-0.6787,-1.1682,-0.5368,30,-351,-321
114,2026-04-07T10:49:51.891Z,1775558992239,0.998231,-0.005898,-0.010213,-0.004773,-0.6692,-1.1716,-0.5392,30,-348,-318
115,2026-04-07T10:49:51.908Z,1775558992267,0.998231,-0.005874,-0.010211,-0.004779,-0.6665,-1.1713,-0.5399,30,-359,-329
116,2026-04-07T10:49:51.935Z,1775558992294,0.998231,-0.005837,-0.010312,-0.004779,-0.6622,-1.1829,-0.5399,30,-359,-329
117,2026-04-07T10:49:52.006Z,1775558992366,0.998231,-0.005808,-0.010341,-0.004772,-0.6589,-1.1862,-0.5391,30,-360,-330
118,2026-04-07T10:49:52.038Z,1775558992398,0.998230,-0.005910,-0.010336,-0.004783,-0.6705,-1.1856,-0.5402,30,-360,-330
119,2026-04-07T10:49:52.108Z,1775558992467,0.998229,-0.005934,-0.010374,-0.004806,-0.6732,-1.1900,-0.5428,30,-359,-329
120,2026-04-07T10:49:52.134Z,1775558992494,0.998230,-0.005954,-0.010281,-0.004817,-0.6756,-1.1794,-0.5441,30,-360,-330
121,2026-04-07T10:49:52.208Z,1775558992568,0.998229,-0.005990,-0.010319,-0.004824,-0.6796,-1.1838,-0.5449,30,-360,-330
122,2026-04-07T10:49:52.243Z,1775558992603,0.998229,-0.006004,-0.010360,-0.004825,-0.6812,-1.1885,-0.5449,30,-360,-330
123,2026-04-07T10:49:52.308Z,1775558992667,0.998229,-0.005959,-0.010362,-0.004813,-0.6761,-1.1887,-0.5436,30,-359,-329
124,2026-04-07T10:49:52.339Z,1775558992697,0.998229,-0.005986,-0.010370,-0.004818,-0.6792,-1.1896,-0.5441,30,-358,-328
125,2026-04-07T10:49:52.414Z,1775558992774,0.998229,-0.005942,-0.010356,-0.004839,-0.6741,-1.1880,-0.5466,30,-360,-330
126,2026-04-07T10:49:52.443Z,1775558992803,0.998229,-0.006013,-0.010375,-0.004845,-0.6822,-1.1902,-0.5472,30,-360,-330
127,2026-04-07T10:49:52.510Z,1775558992870,0.998228,-0.005992,-0.010446,-0.004860,-0.6798,-1.1983,-0.5489,30,-360,-330
128,2026-04-07T10:49:52.545Z,1775558992904,0.998228,-0.005914,-0.010429,-0.004872,-0.6708,-1.1963,-0.5504,30,-359,-329
129,2026-04-07T10:49:52.611Z,1775558992970,0.998228,-0.006005,-0.010416,-0.004883,-0.6812,-1.1949,-0.5515,30,-359,-329
130,2026-04-07T10:49:52.638Z,1775558992998,0.998228,-0.005972,-0.010457,-0.004885,-0.6774,-1.1996,-0.5518,30,-360,-330
131,2026-04-07T10:49:52.714Z,1775558993073,0.998227,-0.005973,-0.010489,-0.004885,-0.6775,-1.2033,-0.5517,30,-359,-329
132,2026-04-07T10:49:52.752Z,1775558993112,0.998225,-0.006153,-0.010608,-0.004925,-0.6980,-1.2170,-0.5560,30,-360,-330
133,2026-04-07T10:49:52.789Z,1775558993149,0.998224,-0.006238,-0.010639,-0.004917,-0.7077,-1.2206,-0.5550,30,-360,-330
134,2026-04-07T10:49:52.860Z,1775558993219,0.998226,-0.006169,-0.010542,-0.004920,-0.6999,-1.2094,-0.5555,30,-359,-329
135,2026-04-07T10:49:52.886Z,1775558993246,0.998228,-0.005938,-0.010449,-0.004906,-0.6735,-1.1987,-0.5542,30,-360,-330
136,2026-04-07T10:49:52.965Z,1775558993325,0.998232,-0.005774,-0.010153,-0.004908,-0.6549,-1.1647,-0.5548,30,-360,-330
137,2026-04-07T10:49:52.993Z,1775558993354,0.998230,-0.005916,-0.010239,-0.004917,-0.6711,-1.1746,-0.5556,30,-361,-331
138,2026-04-07T10:49:53.065Z,1775558993425,0.998230,-0.005975,-0.010178,-0.004935,-0.6779,-1.1677,-0.5577,30,-360,-330
139,2026-04-07T10:49:53.095Z,1775558993455,0.998232,-0.005882,-0.010117,-0.004941,-0.6673,-1.1607,-0.5585,30,-360,-330
140,2026-04-07T10:49:53.169Z,1775558993528,0.998232,-0.005905,-0.010106,-0.004948,-0.6699,-1.1594,-0.5593,30,-359,-329
141,2026-04-07T10:49:53.202Z,1775558993562,0.998231,-0.006006,-0.010088,-0.004976,-0.6814,-1.1575,-0.5624,30,-360,-330
142,2026-04-07T10:49:53.238Z,1775558993598,0.998231,-0.006061,-0.010087,-0.004979,-0.6877,-1.1574,-0.5627,30,-360,-330
143,2026-04-07T10:49:53.309Z,1775558993670,0.998230,-0.006030,-0.010155,-0.004983,-0.6841,-1.1651,-0.5631,30,-361,-331
144,2026-04-07T10:49:53.338Z,1775558993698,0.998229,-0.005927,-0.010355,-0.004984,-0.6722,-1.1880,-0.5632,30,-360,-330
145,2026-04-07T10:49:53.411Z,1775558993770,0.998229,-0.005999,-0.010304,-0.004980,-0.6805,-1.1822,-0.5627,30,-359,-329
146,2026-04-07T10:49:53.448Z,1775558993807,0.998229,-0.005980,-0.010324,-0.004995,-0.6783,-1.1845,-0.5644,30,-359,-329
147,2026-04-07T10:49:53.514Z,1775558993874,0.998229,-0.005968,-0.010325,-0.004996,-0.6769,-1.1846,-0.5646,30,-360,-330
148,2026-04-07T10:49:53.544Z,1775558993904,0.998228,-0.006067,-0.010296,-0.005009,-0.6882,-1.1813,-0.5659,30,-360,-330
149,2026-04-07T10:49:53.613Z,1775558993974,0.998227,-0.006024,-0.010424,-0.005013,-0.6833,-1.1959,-0.5664,30,-361,-331
150,2026-04-07T10:49:53.643Z,1775558994004,0.998227,-0.005988,-0.010485,-0.005022,-0.6791,-1.2029,-0.5674,30,-361,-331
151,2026-04-07T10:49:53.711Z,1775558994072,0.998227,-0.006006,-0.010470,-0.005018,-0.6812,-1.2012,-0.5669,30,-361,-331
152,2026-04-07T10:49:53.740Z,1775558994100,0.998227,-0.005986,-0.010439,-0.005014,-0.6789,-1.1976,-0.5665,30,-360,-330
153,2026-04-07T10:49:53.811Z,1775558994172,0.998228,-0.006001,-0.010385,-0.005016,-0.6806,-1.1915,-0.5668,30,-361,-331
154,2026-04-07T10:49:53.842Z,1775558994202,0.998228,-0.006019,-0.010365,-0.005011,-0.6827,-1.1892,-0.5662,30,-360,-330
155,2026-04-07T10:49:53.920Z,1775558994279,0.998228,-0.006058,-0.010353,-0.005023,-0.6872,-1.1878,-0.5675,30,-359,-329
156,2026-04-07T10:49:53.946Z,1775558994306,0.998228,-0.005941,-0.010351,-0.005020,-0.6738,-1.1875,-0.5673,30,-360,-330
157,2026-04-07T10:49:54.010Z,1775558994369,0.998229,-0.005938,-0.010343,-0.005014,-0.6735,-1.1866,-0.5666,30,-359,-329
158,2026-04-07T10:49:54.042Z,1775558994400,0.998227,-0.006029,-0.010475,-0.005015,-0.6838,-1.2018,-0.5666,30,-358,-328
159,2026-04-07T10:49:54.115Z,1775558994473,0.998226,-0.005958,-0.010543,-0.005015,-0.6756,-1.2095,-0.5666,30,-358,-328
160,2026-04-07T10:49:54.147Z,1775558994507,0.998226,-0.005956,-0.010572,-0.005019,-0.6754,-1.2128,-0.5670,30,-360,-330
161,2026-04-07T10:49:54.207Z,1775558994567,0.998226,-0.005906,-0.010644,-0.005026,-0.6696,-1.2210,-0.5679,30,-360,-330
162,2026-04-07T10:49:54.242Z,1775558994601,0.998225,-0.005896,-0.010697,-0.005011,-0.6685,-1.2271,-0.5661,30,-359,-329
163,2026-04-07T10:49:54.321Z,1775558994679,0.998226,-0.005915,-0.010587,-0.005016,-0.6707,-1.2145,-0.5667,30,-358,-328
164,2026-04-07T10:49:54.346Z,1775558994706,0.998227,-0.005874,-0.010550,-0.005013,-0.6660,-1.2103,-0.5665,30,-360,-330
165,2026-04-07T10:49:54.408Z,1775558994768,0.998228,-0.005854,-0.010458,-0.005005,-0.6638,-1.1997,-0.5656,30,-360,-330
166,2026-04-07T10:49:54.441Z,1775558994800,0.998228,-0.005841,-0.010474,-0.005010,-0.6623,-1.2015,-0.5662,30,-359,-329
167,2026-04-07T10:49:54.515Z,1775558994875,0.998228,-0.005801,-0.010482,-0.005000,-0.6577,-1.2024,-0.5651,30,-360,-330
168,2026-04-07T10:49:54.552Z,1775558994912,0.998229,-0.005768,-0.010433,-0.005015,-0.6540,-1.1968,-0.5669,30,-360,-330
169,2026-04-07T10:49:54.611Z,1775558994971,0.998229,-0.005815,-0.010389,-0.005026,-0.6593,-1.1918,-0.5681,30,-360,-330
170,2026-04-07T10:49:54.638Z,1775558994998,0.998228,-0.005877,-0.010391,-0.005021,-0.6664,-1.1921,-0.5675,30,-360,-330
171,2026-04-07T10:49:54.710Z,1775558995070,0.998230,-0.005843,-0.010275,-0.005006,-0.6626,-1.1788,-0.5659,30,-360,-330
172,2026-04-07T10:49:54.740Z,1775558995100,0.998231,-0.005784,-0.010227,-0.005003,-0.6559,-1.1733,-0.5656,30,-360,-330
173,2026-04-07T10:49:54.812Z,1775558995173,0.998231,-0.005769,-0.010199,-0.005004,-0.6542,-1.1700,-0.5658,30,-361,-331
174,2026-04-07T10:49:54.843Z,1775558995203,0.998230,-0.005880,-0.010277,-0.004998,-0.6669,-1.1790,-0.5649,30,-360,-330
175,2026-04-07T10:49:54.920Z,1775558995279,0.998229,-0.005885,-0.010343,-0.005000,-0.6674,-1.1866,-0.5651,30,-359,-329
176,2026-04-07T10:49:54.947Z,1775558995307,0.998228,-0.005888,-0.010444,-0.004994,-0.6677,-1.1981,-0.5643,30,-360,-330
177,2026-04-07T10:49:55.018Z,1775558995377,0.998228,-0.005863,-0.010426,-0.004999,-0.6648,-1.1961,-0.5650,30,-359,-329
178,2026-04-07T10:49:55.054Z,1775558995414,0.998229,-0.005850,-0.010359,-0.005000,-0.6634,-1.1884,-0.5651,30,-360,-330
179,2026-04-07T10:49:55.108Z,1775558995467,0.998229,-0.005859,-0.010319,-0.005006,-0.6644,-1.1838,-0.5658,30,-359,-329
180,2026-04-07T10:49:55.145Z,1775558995503,0.998230,-0.005773,-0.010268,-0.004996,-0.6546,-1.1779,-0.5648,30,-358,-328
181,2026-04-07T10:49:55.212Z,1775558995573,0.998231,-0.005800,-0.010227,-0.004992,-0.6578,-1.1733,-0.5644,30,-361,-331
182,2026-04-07T10:49:55.241Z,1775558995601,0.998231,-0.005842,-0.010213,-0.004992,-0.6626,-1.1717,-0.5643,30,-360,-330
183,2026-04-07T10:49:55.316Z,1775558995672,0.998231,-0.005817,-0.010227,-0.005004,-0.6597,-1.1733,-0.5657,30,-356,-326
184,2026-04-07T10:49:55.352Z,1775558995711,0.998232,-0.005746,-0.010171,-0.005005,-0.6516,-1.1668,-0.5659,30,-359,-329
185,2026-04-07T10:49:55.383Z,1775558995743,0.998232,-0.005691,-0.010199,-0.004997,-0.6453,-1.1700,-0.5651,30,-360,-330
186,2026-04-07T10:49:55.472Z,1775558995832,0.998231,-0.005760,-0.010249,-0.004982,-0.6532,-1.1757,-0.5632,30,-360,-330
187,2026-04-07T10:49:55.503Z,1775558995863,0.998232,-0.005720,-0.010177,-0.004998,-0.6486,-1.1675,-0.5652,30,-360,-330
188,2026-04-07T10:49:55.536Z,1775558995894,0.998230,-0.005784,-0.010300,-0.004994,-0.6559,-1.1816,-0.5646,30,-358,-328
189,2026-04-07T10:49:55.607Z,1775558995967,0.998230,-0.005740,-0.010305,-0.004988,-0.6509,-1.1821,-0.5639,30,-360,-330
190,2026-04-07T10:49:55.643Z,1775558996003,0.998230,-0.005769,-0.010300,-0.004997,-0.6542,-1.1816,-0.5649,30,-360,-330
191,2026-04-07T10:49:55.720Z,1775558996081,0.998230,-0.005760,-0.010320,-0.004992,-0.6531,-1.1839,-0.5643,30,-361,-331
192,2026-04-07T10:49:55.752Z,1775558996112,0.998231,-0.005696,-0.010303,-0.005005,-0.6458,-1.1819,-0.5659,30,-360,-330
193,2026-04-07T10:49:55.813Z,1775558996174,0.998229,-0.005754,-0.010375,-0.005010,-0.6524,-1.1902,-0.5664,30,-361,-331
194,2026-04-07T10:49:55.844Z,1775558996205,0.998229,-0.005779,-0.010372,-0.005011,-0.6553,-1.1898,-0.5665,30,-361,-331
195,2026-04-07T10:49:55.907Z,1775558996266,0.998229,-0.005822,-0.010350,-0.004997,-0.6602,-1.1873,-0.5648,30,-359,-329
196,2026-04-07T10:49:55.935Z,1775558996296,0.998230,-0.005954,-0.010243,-0.005001,-0.6754,-1.1752,-0.5652,30,-361,-331
197,2026-04-07T10:49:56.017Z,1775558996376,0.998230,-0.005898,-0.010233,-0.005019,-0.6689,-1.1740,-0.5673,30,-359,-329
198,2026-04-07T10:49:56.049Z,1775558996410,0.998230,-0.005848,-0.010271,-0.005029,-0.6632,-1.1783,-0.5685,30,-361,-331
199,2026-04-07T10:49:56.108Z,1775558996468,0.998229,-0.005830,-0.010349,-0.005039,-0.6611,-1.1873,-0.5696,30,-360,-330
200,2026-04-07T10:49:56.138Z,1775558996499,0.998230,-0.005818,-0.010310,-0.005041,-0.6597,-1.1828,-0.5699,30,-361,-331
201,2026-04-07T10:49:56.211Z,1775558996569,0.998229,-0.005787,-0.010380,-0.005037,-0.6561,-1.1908,-0.5694,30,-358,-328
202,2026-04-07T10:49:56.243Z,1775558996603,0.998230,-0.005742,-0.010322,-0.005055,-0.6510,-1.1841,-0.5716,30,-360,-330
203,2026-04-07T10:49:56.315Z,1775558996675,0.998229,-0.005762,-0.010346,-0.005057,-0.6533,-1.1869,-0.5718,30,-360,-330
204,2026-04-07T10:49:56.345Z,1775558996706,0.998229,-0.005797,-0.010331,-0.005050,-0.6573,-1.1852,-0.5709,30,-361,-331
205,2026-04-07T10:49:56.406Z,1775558996766,0.998228,-0.005766,-0.010442,-0.005057,-0.6537,-1.1979,-0.5717,30,-360,-330
206,2026-04-07T10:49:56.435Z,1775558996793,0.998228,-0.005802,-0.010409,-0.005058,-0.6578,-1.1941,-0.5718,30,-358,-328
207,2026-04-07T10:49:56.515Z,1775558996874,0.998228,-0.005831,-0.010391,-0.005065,-0.6611,-1.1921,-0.5726,30,-359,-329
208,2026-04-07T10:49:56.551Z,1775558996909,0.998229,-0.005714,-0.010373,-0.005055,-0.6478,-1.1899,-0.5716,30,-358,-328
209,2026-04-07T10:49:56.617Z,1775558996978,0.998229,-0.005683,-0.010380,-0.005052,-0.6442,-1.1907,-0.5713,30,-361,-331
210,2026-04-07T10:49:56.793Z,1775558997153,0.998229,-0.005651,-0.010438,-0.005046,-0.6405,-1.1973,-0.5706,25,-360,-335
211,2026-04-07T10:49:56.796Z,1775558997153,0.998229,-0.005738,-0.010428,-0.005047,-0.6505,-1.1962,-0.5706,25,-357,-332
212,2026-04-07T10:49:56.799Z,1775558997153,0.998229,-0.005704,-0.010440,-0.005041,-0.6466,-1.1976,-0.5699,25,-354,-329
213,2026-04-07T10:49:56.824Z,1775558997181,0.998228,-0.005718,-0.010456,-0.005054,-0.6482,-1.1994,-0.5714,25,-357,-332
214,2026-04-07T10:49:56.848Z,1775558997207,0.998229,-0.005762,-0.010374,-0.005069,-0.6532,-1.1901,-0.5731,25,-359,-334
215,2026-04-07T10:49:56.915Z,1775558997273,0.998230,-0.005779,-0.010245,-0.005075,-0.6552,-1.1754,-0.5739,25,-358,-333
216,2026-04-07T10:49:56.945Z,1775558997305,0.998229,-0.005746,-0.010350,-0.005068,-0.6514,-1.1873,-0.5730,25,-360,-335
217,2026-04-07T10:49:57.018Z,1775558997370,0.998230,-0.005724,-0.010307,-0.005079,-0.6489,-1.1824,-0.5744,25,-352,-327
218,2026-04-07T10:49:57.043Z,1775558997403,0.998229,-0.005775,-0.010390,-0.005085,-0.6547,-1.1919,-0.5749,25,-360,-335
219,2026-04-07T10:49:57.115Z,1775558997474,0.998229,-0.005759,-0.010322,-0.005092,-0.6529,-1.1842,-0.5758,25,-359,-334
220,2026-04-07T10:49:57.145Z,1775558997505,0.998229,-0.005764,-0.010385,-0.005078,-0.6534,-1.1914,-0.5741,25,-360,-335
221,2026-04-07T10:49:57.211Z,1775558997570,0.998228,-0.005744,-0.010490,-0.005075,-0.6511,-1.2034,-0.5738,25,-359,-334
222,2026-04-07T10:49:57.245Z,1775558997605,0.998228,-0.005688,-0.010486,-0.005071,-0.6447,-1.2029,-0.5734,25,-360,-335
223,2026-04-07T10:49:57.311Z,1775558997672,0.998228,-0.005654,-0.010539,-0.005060,-0.6408,-1.2089,-0.5721,25,-361,-336
224,2026-04-07T10:49:57.339Z,1775558997698,0.998227,-0.005742,-0.010561,-0.005050,-0.6509,-1.2115,-0.5708,25,-359,-334
225,2026-04-07T10:49:57.411Z,1775558997771,0.998228,-0.005727,-0.010490,-0.005052,-0.6492,-1.2033,-0.5711,25,-360,-335
226,2026-04-07T10:49:57.448Z,1775558997806,0.998229,-0.005746,-0.010417,-0.005049,-0.6514,-1.1950,-0.5708,25,-358,-333
227,2026-04-07T10:49:57.515Z,1775558997874,0.998229,-0.005744,-0.010417,-0.005037,-0.6512,-1.1950,-0.5695,25,-359,-334
228,2026-04-07T10:49:57.545Z,1775558997904,0.998229,-0.005795,-0.010413,-0.005039,-0.6570,-1.1946,-0.5696,25,-359,-334
229,2026-04-07T10:49:57.617Z,1775558997976,0.998229,-0.005803,-0.010346,-0.005043,-0.6580,-1.1869,-0.5701,25,-359,-334
230,2026-04-07T10:49:57.643Z,1775558998003,0.998229,-0.005873,-0.010352,-0.005040,-0.6660,-1.1876,-0.5697,25,-360,-335
231,2026-04-07T10:49:57.708Z,1775558998066,0.998230,-0.005895,-0.010260,-0.005046,-0.6685,-1.1771,-0.5704,25,-358,-333
232,2026-04-07T10:49:57.733Z,1775558998092,0.998229,-0.005899,-0.010276,-0.005031,-0.6690,-1.1789,-0.5687,25,-359,-334
233,2026-04-07T10:49:57.807Z,1775558998168,0.998230,-0.005812,-0.010284,-0.005044,-0.6590,-1.1798,-0.5703,25,-361,-336
234,2026-04-07T10:49:57.836Z,1775558998194,0.998231,-0.005859,-0.010184,-0.005056,-0.6645,-1.1684,-0.5716,25,-358,-333
235,2026-04-07T10:49:57.905Z,1775558998265,0.998230,-0.005811,-0.010264,-0.005039,-0.6589,-1.1775,-0.5697,25,-360,-335
236,2026-04-07T10:49:57.956Z,1775558998315,0.998230,-0.005830,-0.010271,-0.005034,-0.6611,-1.1783,-0.5691,25,-359,-334
237,2026-04-07T10:49:57.982Z,1775558998341,0.998230,-0.005822,-0.010293,-0.005051,-0.6602,-1.1809,-0.5710,25,-359,-334
238,2026-04-07T10:49:58.056Z,1775558998417,0.998230,-0.005731,-0.010281,-0.005058,-0.6498,-1.1794,-0.5720,25,-361,-336
239,2026-04-07T10:49:58.084Z,1775558998443,0.998230,-0.005660,-0.010296,-0.005061,-0.6416,-1.1811,-0.5724,25,-359,-334
240,2026-04-07T10:49:58.157Z,1775558998517,0.998229,-0.005778,-0.010316,-0.005072,-0.6551,-1.1835,-0.5735,25,-360,-335
241,2026-04-07T10:49:58.183Z,1775558998543,0.998229,-0.005690,-0.010375,-0.005071,-0.6450,-1.1902,-0.5734,25,-360,-335
242,2026-04-07T10:49:58.255Z,1775558998616,0.998230,-0.005718,-0.010315,-0.005067,-0.6482,-1.1833,-0.5730,25,-361,-336
243,2026-04-07T10:49:58.281Z,1775558998641,0.998230,-0.005723,-0.010264,-0.005059,-0.6488,-1.1775,-0.5721,25,-360,-335
244,2026-04-07T10:49:58.356Z,1775558998716,0.998229,-0.005801,-0.010342,-0.005047,-0.6577,-1.1864,-0.5706,25,-360,-335
245,2026-04-07T10:49:58.381Z,1775558998741,0.998229,-0.005898,-0.010341,-0.005052,-0.6688,-1.1864,-0.5710,25,-360,-335
246,2026-04-07T10:49:58.466Z,1775558998817,0.998229,-0.005892,-0.010318,-0.005052,-0.6682,-1.1838,-0.5711,25,-351,-326
247,2026-04-07T10:49:58.485Z,1775558998843,0.998229,-0.005852,-0.010304,-0.005031,-0.6636,-1.1821,-0.5687,25,-358,-333
248,2026-04-07T10:49:58.557Z,1775558998916,0.998229,-0.005767,-0.010385,-0.005023,-0.6539,-1.1913,-0.5678,25,-359,-334
249,2026-04-07T10:49:58.583Z,1775558998943,0.998229,-0.005837,-0.010396,-0.005026,-0.6619,-1.1926,-0.5681,25,-360,-335
250,2026-04-07T10:49:58.656Z,1775558999016,0.998228,-0.005838,-0.010412,-0.005013,-0.6620,-1.1945,-0.5666,25,-360,-335
251,2026-04-07T10:49:58.691Z,1775558999043,0.998228,-0.005908,-0.010382,-0.005007,-0.6700,-1.1911,-0.5658,25,-352,-327
252,2026-04-07T10:49:58.758Z,1775558999118,0.998229,-0.005901,-0.010341,-0.005017,-0.6692,-1.1864,-0.5670,25,-360,-335
253,2026-04-07T10:49:58.784Z,1775558999144,0.998230,-0.005857,-0.010303,-0.005006,-0.6642,-1.1820,-0.5658,25,-360,-335
254,2026-04-07T10:49:58.855Z,1775558999216,0.998229,-0.005874,-0.010325,-0.005019,-0.6661,-1.1845,-0.5673,25,-361,-336
255,2026-04-07T10:49:58.885Z,1775558999243,0.998229,-0.005932,-0.010283,-0.005011,-0.6728,-1.1797,-0.5663,25,-358,-333
256,2026-04-07T10:49:58.959Z,1775558999319,0.998230,-0.005880,-0.010209,-0.005007,-0.6669,-1.1712,-0.5660,25,-360,-335
257,2026-04-07T10:49:58.987Z,1775558999346,0.998230,-0.005843,-0.010296,-0.005030,-0.6626,-1.1812,-0.5686,25,-359,-334
258,2026-04-07T10:49:59.056Z,1775558999416,0.998229,-0.005841,-0.010330,-0.005027,-0.6624,-1.1851,-0.5682,25,-360,-335
259,2026-04-07T10:49:59.085Z,1775558999442,0.998229,-0.005861,-0.010361,-0.005036,-0.6646,-1.1886,-0.5692,25,-357,-332
260,2026-04-07T10:49:59.157Z,1775558999516,0.998229,-0.005796,-0.010403,-0.005033,-0.6572,-1.1934,-0.5689,25,-359,-334
261,2026-04-07T10:49:59.182Z,1775558999541,0.998229,-0.005676,-0.010453,-0.005033,-0.6434,-1.1991,-0.5691,25,-359,-334
262,2026-04-07T10:49:59.256Z,1775558999616,0.998229,-0.005716,-0.010423,-0.005027,-0.6480,-1.1957,-0.5683,25,-360,-335
263,2026-04-07T10:49:59.283Z,1775558999642,0.998229,-0.005652,-0.010414,-0.005026,-0.6407,-1.1946,-0.5683,25,-359,-334
264,2026-04-07T10:49:59.357Z,1775558999716,0.998229,-0.005570,-0.010481,-0.005033,-0.6313,-1.2022,-0.5692,25,-359,-334
265,2026-04-07T10:49:59.384Z,1775558999743,0.998229,-0.005650,-0.010474,-0.005042,-0.6404,-1.2015,-0.5701,25,-359,-334
266,2026-04-07T10:49:59.459Z,1775558999818,0.998229,-0.005695,-0.010397,-0.005045,-0.6456,-1.1927,-0.5704,25,-359,-334
267,2026-04-07T10:49:59.485Z,1775558999845,0.998230,-0.005752,-0.010350,-0.005036,-0.6521,-1.1873,-0.5694,25,-360,-335
268,2026-04-07T10:49:59.557Z,1775558999917,0.998230,-0.005886,-0.010257,-0.005033,-0.6675,-1.1768,-0.5689,25,-360,-335
269,2026-04-07T10:49:59.588Z,1775558999945,0.998229,-0.005910,-0.010280,-0.005042,-0.6703,-1.1794,-0.5699,25,-357,-332
270,2026-04-07T10:49:59.656Z,1775559000016,0.998229,-0.005902,-0.010272,-0.005065,-0.6693,-1.1785,-0.5726,25,-360,-335
271,2026-04-07T10:49:59.684Z,1775559000042,0.998229,-0.005794,-0.010327,-0.005063,-0.6569,-1.1847,-0.5724,25,-358,-333
272,2026-04-07T10:49:59.756Z,1775559000115,0.998229,-0.005863,-0.010353,-0.005066,-0.6648,-1.1878,-0.5727,25,-359,-334
273,2026-04-07T10:49:59.811Z,1775559000167,0.998228,-0.005867,-0.010404,-0.005063,-0.6652,-1.1936,-0.5723,25,-356,-331
274,2026-04-07T10:49:59.836Z,1775559000193,0.998229,-0.005796,-0.010349,-0.005069,-0.6571,-1.1873,-0.5731,25,-357,-332
275,2026-04-07T10:49:59.908Z,1775559000267,0.998228,-0.005717,-0.010455,-0.005063,-0.6480,-1.1993,-0.5724,25,-359,-334
276,2026-04-07T10:49:59.933Z,1775559000293,0.998228,-0.005750,-0.010446,-0.005054,-0.6518,-1.1983,-0.5714,25,-360,-335
277,2026-04-07T10:50:00.011Z,1775559000368,0.998229,-0.005762,-0.010404,-0.005050,-0.6532,-1.1935,-0.5709,25,-357,-332
278,2026-04-07T10:50:00.043Z,1775559000394,0.998230,-0.005725,-0.010267,-0.005056,-0.6491,-1.1778,-0.5717,25,-351,-326
279,2026-04-07T10:50:00.109Z,1775559000469,0.998231,-0.005682,-0.010276,-0.005047,-0.6442,-1.1788,-0.5708,25,-360,-335
280,2026-04-07T10:50:00.138Z,1775559000496,0.998230,-0.005698,-0.010296,-0.005047,-0.6460,-1.1811,-0.5707,25,-358,-333
281,2026-04-07T10:50:00.206Z,1775559000566,0.998231,-0.005680,-0.010258,-0.005069,-0.6439,-1.1768,-0.5733,25,-360,-335
282,2026-04-07T10:50:00.232Z,1775559000592,0.998232,-0.005682,-0.010173,-0.005067,-0.6442,-1.1671,-0.5731,25,-360,-335
283,2026-04-07T10:50:00.307Z,1775559000666,0.998231,-0.005645,-0.010208,-0.005076,-0.6399,-1.1710,-0.5742,25,-359,-334
284,2026-04-07T10:50:00.334Z,1775559000693,0.998230,-0.005755,-0.010284,-0.005076,-0.6525,-1.1798,-0.5740,25,-359,-334
285,2026-04-07T10:50:00.406Z,1775559000765,0.998230,-0.005768,-0.010234,-0.005074,-0.6540,-1.1741,-0.5738,25,-359,-334
286,2026-04-07T10:50:00.430Z,1775559000791,0.998231,-0.005739,-0.010197,-0.005061,-0.6507,-1.1698,-0.5723,25,-361,-336
287,2026-04-07T10:50:00.505Z,1775559000866,0.998230,-0.005785,-0.010221,-0.005062,-0.6560,-1.1726,-0.5724,25,-361,-336
288,2026-04-07T10:50:00.533Z,1775559000892,0.998230,-0.005706,-0.010276,-0.005059,-0.6469,-1.1788,-0.5721,25,-359,-334
289,2026-04-07T10:50:00.607Z,1775559000967,0.998230,-0.005783,-0.010288,-0.005065,-0.6557,-1.1803,-0.5727,25,-360,-335
290,2026-04-07T10:50:00.636Z,1775559000995,0.998229,-0.005772,-0.010354,-0.005060,-0.6544,-1.1878,-0.5721,25,-359,-334
291,2026-04-07T10:50:00.708Z,1775559001068,0.998228,-0.005788,-0.010440,-0.005064,-0.6562,-1.1977,-0.5725,25,-360,-335
292,2026-04-07T10:50:00.733Z,1775559001094,0.998228,-0.005775,-0.010438,-0.005078,-0.6547,-1.1974,-0.5741,25,-361,-336
293,2026-04-07T10:50:00.806Z,1775559001166,0.998229,-0.005761,-0.010376,-0.005083,-0.6531,-1.1903,-0.5747,25,-360,-335
294,2026-04-07T10:50:00.831Z,1775559001192,0.998230,-0.005778,-0.010287,-0.005081,-0.6551,-1.1802,-0.5745,25,-361,-336
295,2026-04-07T10:50:00.909Z,1775559001266,0.998230,-0.005850,-0.010261,-0.005068,-0.6634,-1.1772,-0.5730,25,-357,-332
296,2026-04-07T10:50:00.933Z,1775559001292,0.998230,-0.005887,-0.010208,-0.005096,-0.6676,-1.1712,-0.5762,25,-359,-334
297,2026-04-07T10:50:01.008Z,1775559001368,0.998230,-0.005786,-0.010202,-0.005102,-0.6560,-1.1705,-0.5770,25,-360,-335
298,2026-04-07T10:50:01.036Z,1775559001395,0.998230,-0.005793,-0.010251,-0.005101,-0.6568,-1.1761,-0.5768,25,-359,-334
299,2026-04-07T10:50:01.107Z,1775559001466,0.998229,-0.005840,-0.010286,-0.005100,-0.6622,-1.1801,-0.5766,25,-359,-334
300,2026-04-07T10:50:01.133Z,1775559001492,0.998230,-0.005836,-0.010252,-0.005102,-0.6617,-1.1762,-0.5769,25,-359,-334
301,2026-04-07T10:50:01.206Z,1775559001567,0.998228,-0.005957,-0.010330,-0.005097,-0.6755,-1.1852,-0.5761,25,-361,-336
302,2026-04-07T10:50:01.243Z,1775559001594,0.998229,-0.005886,-0.010285,-0.005095,-0.6674,-1.1800,-0.5760,25,-351,-326
303,2026-04-07T10:50:01.309Z,1775559001668,0.998228,-0.005983,-0.010297,-0.005091,-0.6785,-1.1814,-0.5754,25,-359,-334
304,2026-04-07T10:50:01.348Z,1775559001693,0.998228,-0.005902,-0.010342,-0.005101,-0.6692,-1.1865,-0.5766,25,-345,-320
305,2026-04-07T10:50:01.504Z,1775559001865,0.998228,-0.005894,-0.010386,-0.005098,-0.6683,-1.1916,-0.5763,25,-361,-336
306,2026-04-07T10:50:01.507Z,1775559001865,0.998230,-0.005790,-0.010252,-0.005112,-0.6565,-1.1762,-0.5781,25,-358,-333
307,2026-04-07T10:50:01.512Z,1775559001865,0.998229,-0.005842,-0.010280,-0.005119,-0.6624,-1.1794,-0.5788,25,-353,-328
308,2026-04-07T10:50:01.556Z,1775559001916,0.998229,-0.005837,-0.010269,-0.005118,-0.6618,-1.1782,-0.5787,25,-360,-335
309,2026-04-07T10:50:01.582Z,1775559001943,0.998230,-0.005797,-0.010234,-0.005126,-0.6573,-1.1741,-0.5797,25,-361,-336
310,2026-04-07T10:50:01.697Z,1775559002057,0.998230,-0.005895,-0.010144,-0.005128,-0.6685,-1.1639,-0.5799,25,-360,-335
311,2026-04-07T10:50:01.700Z,1775559002058,0.998230,-0.005855,-0.010171,-0.005139,-0.6639,-1.1670,-0.5812,25,-358,-333
312,2026-04-07T10:50:01.757Z,1775559002117,0.998230,-0.005891,-0.010169,-0.005147,-0.6680,-1.1668,-0.5820,25,-360,-335
313,2026-04-07T10:50:01.782Z,1775559002142,0.998229,-0.005883,-0.010236,-0.005156,-0.6671,-1.1744,-0.5830,25,-360,-335
314,2026-04-07T10:50:01.855Z,1775559002216,0.998228,-0.005910,-0.010295,-0.005170,-0.6701,-1.1812,-0.5846,25,-361,-336
315,2026-04-07T10:50:01.884Z,1775559002242,0.998228,-0.005908,-0.010335,-0.005175,-0.6698,-1.1858,-0.5851,25,-358,-333
316,2026-04-07T10:50:01.957Z,1775559002318,0.998229,-0.005876,-0.010285,-0.005182,-0.6662,-1.1801,-0.5860,25,-361,-336
317,2026-04-07T10:50:01.983Z,1775559002344,0.998229,-0.005903,-0.010193,-0.005190,-0.6693,-1.1696,-0.5869,25,-361,-336
318,2026-04-07T10:50:02.056Z,1775559002416,0.998229,-0.005881,-0.010261,-0.005187,-0.6668,-1.1773,-0.5866,25,-360,-335
319,2026-04-07T10:50:02.084Z,1775559002442,0.998229,-0.005946,-0.010177,-0.005170,-0.6743,-1.1677,-0.5846,25,-358,-333
320,2026-04-07T10:50:02.158Z,1775559002516,0.998229,-0.005905,-0.010203,-0.005165,-0.6696,-1.1707,-0.5840,25,-358,-333
321,2026-04-07T10:50:02.183Z,1775559002543,0.998229,-0.005942,-0.010213,-0.005173,-0.6738,-1.1719,-0.5849,25,-360,-335
322,2026-04-07T10:50:02.255Z,1775559002616,0.998229,-0.005888,-0.010249,-0.005175,-0.6676,-1.1759,-0.5852,25,-361,-336
323,2026-04-07T10:50:02.284Z,1775559002643,0.998229,-0.005875,-0.010240,-0.005166,-0.6661,-1.1749,-0.5842,25,-359,-334
324,2026-04-07T10:50:02.357Z,1775559002715,0.998229,-0.005835,-0.010313,-0.005166,-0.6615,-1.1832,-0.5842,25,-358,-333
325,2026-04-07T10:50:02.382Z,1775559002742,0.998229,-0.005840,-0.010307,-0.005171,-0.6621,-1.1825,-0.5847,25,-360,-335
326,2026-04-07T10:50:02.455Z,1775559002816,0.998229,-0.005835,-0.010262,-0.005183,-0.6615,-1.1774,-0.5861,25,-361,-336
327,2026-04-07T10:50:02.491Z,1775559002849,0.998229,-0.005780,-0.010295,-0.005188,-0.6552,-1.1812,-0.5868,25,-358,-333
328,2026-04-07T10:50:02.557Z,1775559002916,0.998230,-0.005821,-0.010195,-0.005188,-0.6599,-1.1697,-0.5868,25,-359,-334
329,2026-04-07T10:50:02.595Z,1775559002945,0.998230,-0.005846,-0.010201,-0.005179,-0.6628,-1.1704,-0.5857,25,-350,-325
330,2026-04-07T10:50:02.656Z,1775559003015,0.998231,-0.005810,-0.010110,-0.005188,-0.6587,-1.1600,-0.5868,25,-359,-334
331,2026-04-07T10:50:02.696Z,1775559003056,0.998231,-0.005775,-0.010117,-0.005172,-0.6547,-1.1608,-0.5851,25,-360,-335
332,2026-04-07T10:50:02.757Z,1775559003115,0.998231,-0.005757,-0.010109,-0.005176,-0.6527,-1.1599,-0.5855,25,-358,-333
333,2026-04-07T10:50:02.813Z,1775559003169,0.998231,-0.005817,-0.010098,-0.005185,-0.6596,-1.1586,-0.5865,25,-356,-331
334,2026-04-07T10:50:02.836Z,1775559003195,0.998230,-0.005773,-0.010161,-0.005187,-0.6545,-1.1658,-0.5867,25,-359,-334
335,2026-04-07T10:50:02.906Z,1775559003266,0.998230,-0.005764,-0.010248,-0.005167,-0.6534,-1.1758,-0.5844,25,-360,-335
336,2026-04-07T10:50:02.932Z,1775559003291,0.998229,-0.005751,-0.010318,-0.005140,-0.6519,-1.1837,-0.5813,25,-359,-334
337,2026-04-07T10:50:03.006Z,1775559003366,0.998231,-0.005631,-0.010212,-0.005144,-0.6383,-1.1715,-0.5820,25,-360,-335
338,2026-04-07T10:50:03.031Z,1775559003392,0.998231,-0.005692,-0.010172,-0.005126,-0.6453,-1.1670,-0.5799,25,-361,-336
339,2026-04-07T10:50:03.108Z,1775559003467,0.998231,-0.005717,-0.010163,-0.005117,-0.6482,-1.1660,-0.5788,25,-359,-334
340,2026-04-07T10:50:03.133Z,1775559003493,0.998231,-0.005756,-0.010194,-0.005102,-0.6526,-1.1695,-0.5770,25,-360,-335
341,2026-04-07T10:50:03.225Z,1775559003565,0.998230,-0.005771,-0.010243,-0.005089,-0.6543,-1.1751,-0.5755,25,-340,-315
342,2026-04-07T10:50:03.231Z,1775559003591,0.998230,-0.005759,-0.010246,-0.005075,-0.6530,-1.1755,-0.5739,25,-360,-335
343,2026-04-07T10:50:03.305Z,1775559003666,0.998230,-0.005802,-0.010240,-0.005069,-0.6579,-1.1748,-0.5732,25,-361,-336
344,2026-04-07T10:50:03.333Z,1775559003693,0.998230,-0.005818,-0.010226,-0.005047,-0.6598,-1.1732,-0.5706,25,-360,-335
345,2026-04-07T10:50:03.406Z,1775559003766,0.998230,-0.005758,-0.010245,-0.005047,-0.6529,-1.1753,-0.5707,25,-360,-335
346,2026-04-07T10:50:03.432Z,1775559003792,0.998231,-0.005725,-0.010214,-0.005049,-0.6491,-1.1718,-0.5710,25,-360,-335
347,2026-04-07T10:50:03.509Z,1775559003868,0.998230,-0.005729,-0.010289,-0.005049,-0.6495,-1.1803,-0.5709,25,-359,-334
348,2026-04-07T10:50:03.534Z,1775559003894,0.998230,-0.005731,-0.010273,-0.005049,-0.6498,-1.1785,-0.5709,25,-360,-335
349,2026-04-07T10:50:03.607Z,1775559003967,0.998232,-0.005703,-0.010178,-0.005052,-0.6466,-1.1676,-0.5714,25,-360,-335
350,2026-04-07T10:50:03.636Z,1775559003994,0.998232,-0.005750,-0.010139,-0.005058,-0.6520,-1.1632,-0.5720,25,-358,-333
351,2026-04-07T10:50:03.708Z,1775559004066,0.998231,-0.005798,-0.010175,-0.005061,-0.6575,-1.1673,-0.5723,25,-358,-333
352,2026-04-07T10:50:03.733Z,1775559004092,0.998231,-0.005742,-0.010181,-0.005068,-0.6511,-1.1680,-0.5732,25,-359,-334
353,2026-04-07T10:50:03.808Z,1775559004169,0.998231,-0.005752,-0.010200,-0.005051,-0.6522,-1.1702,-0.5712,25,-361,-336
354,2026-04-07T10:50:03.836Z,1775559004195,0.998231,-0.005763,-0.010240,-0.005044,-0.6535,-1.1748,-0.5703,25,-359,-334
355,2026-04-07T10:50:03.905Z,1775559004265,0.998230,-0.005724,-0.010300,-0.005052,-0.6490,-1.1816,-0.5713,25,-360,-335
356,2026-04-07T10:50:03.933Z,1775559004291,0.998230,-0.005690,-0.010317,-0.005054,-0.6450,-1.1835,-0.5715,25,-358,-333
357,2026-04-07T10:50:04.007Z,1775559004367,0.998230,-0.005716,-0.010314,-0.005054,-0.6480,-1.1832,-0.5715,25,-360,-335
358,2026-04-07T10:50:04.036Z,1775559004394,0.998230,-0.005602,-0.010329,-0.005053,-0.6350,-1.1848,-0.5715,25,-358,-333
359,2026-04-07T10:50:04.111Z,1775559004471,0.998231,-0.005577,-0.010306,-0.005057,-0.6321,-1.1822,-0.5720,25,-360,-335
360,2026-04-07T10:50:04.136Z,1775559004496,0.998230,-0.005570,-0.010413,-0.005050,-0.6313,-1.1944,-0.5712,25,-360,-335
361,2026-04-07T10:50:04.207Z,1775559004567,0.998231,-0.005507,-0.010377,-0.005030,-0.6241,-1.1903,-0.5690,25,-360,-335
362,2026-04-07T10:50:04.236Z,1775559004595,0.998231,-0.005612,-0.010317,-0.005024,-0.6362,-1.1835,-0.5682,25,-359,-334
363,2026-04-07T10:50:04.309Z,1775559004669,0.998231,-0.005593,-0.010300,-0.005011,-0.6340,-1.1815,-0.5667,25,-360,-335
364,2026-04-07T10:50:04.344Z,1775559004704,0.998231,-0.005540,-0.010360,-0.005005,-0.6279,-1.1883,-0.5661,25,-360,-335
365,2026-04-07T10:50:04.413Z,1775559004773,0.998231,-0.005587,-0.010325,-0.005013,-0.6333,-1.1844,-0.5670,25,-360,-335
366,2026-04-07T10:50:04.445Z,1775559004805,0.998230,-0.005595,-0.010357,-0.005023,-0.6342,-1.1880,-0.5681,25,-360,-335
367,2026-04-07T10:50:04.515Z,1775559004875,0.998231,-0.005623,-0.010287,-0.005033,-0.6374,-1.1800,-0.5692,25,-360,-335
368,2026-04-07T10:50:04.552Z,1775559004911,0.998230,-0.005722,-0.010299,-0.005033,-0.6487,-1.1815,-0.5691,25,-359,-334
369,2026-04-07T10:50:04.607Z,1775559004968,0.998229,-0.005729,-0.010397,-0.005042,-0.6495,-1.1927,-0.5701,25,-361,-336
370,2026-04-07T10:50:04.642Z,1775559005003,0.998229,-0.005696,-0.010452,-0.005043,-0.6457,-1.1990,-0.5702,25,-361,-336
371,2026-04-07T10:50:04.711Z,1775559005071,0.998229,-0.005661,-0.010490,-0.005026,-0.6417,-1.2033,-0.5682,25,-360,-335
372,2026-04-07T10:50:04.745Z,1775559005105,0.998229,-0.005798,-0.010411,-0.005034,-0.6574,-1.1943,-0.5690,25,-360,-335
373,2026-04-07T10:50:04.813Z,1775559005174,0.998230,-0.005805,-0.010306,-0.005041,-0.6582,-1.1823,-0.5699,25,-361,-336
374,2026-04-07T10:50:04.849Z,1775559005209,0.998230,-0.005740,-0.010329,-0.005038,-0.6508,-1.1849,-0.5696,25,-360,-335
375,2026-04-07T10:50:04.911Z,1775559005271,0.998230,-0.005717,-0.010357,-0.005055,-0.6481,-1.1881,-0.5716,25,-360,-335
376,2026-04-07T10:50:04.945Z,1775559005305,0.998230,-0.005687,-0.010326,-0.005042,-0.6447,-1.1845,-0.5702,25,-360,-335
377,2026-04-07T10:50:05.011Z,1775559005370,0.998230,-0.005722,-0.010330,-0.005058,-0.6487,-1.1850,-0.5719,25,-359,-334
378,2026-04-07T10:50:05.048Z,1775559005406,0.998230,-0.005766,-0.010281,-0.005053,-0.6538,-1.1795,-0.5713,25,-358,-333
379,2026-04-07T10:50:05.108Z,1775559005468,0.998230,-0.005844,-0.010245,-0.005055,-0.6627,-1.1754,-0.5715,25,-360,-335
380,2026-04-07T10:50:05.146Z,1775559005506,0.998229,-0.005914,-0.010274,-0.005053,-0.6707,-1.1787,-0.5712,25,-360,-335
381,2026-04-07T10:50:05.214Z,1775559005574,0.998229,-0.005974,-0.010272,-0.005062,-0.6776,-1.1785,-0.5721,25,-360,-335
382,2026-04-07T10:50:05.243Z,1775559005604,0.998230,-0.005948,-0.010231,-0.005061,-0.6746,-1.1738,-0.5721,25,-361,-336
383,2026-04-07T10:50:05.309Z,1775559005670,0.998230,-0.005924,-0.010197,-0.005054,-0.6719,-1.1699,-0.5713,25,-361,-336
384,2026-04-07T10:50:05.342Z,1775559005702,0.998230,-0.005878,-0.010191,-0.005079,-0.6666,-1.1692,-0.5742,25,-360,-335
385,2026-04-07T10:50:05.417Z,1775559005776,0.998231,-0.005791,-0.010181,-0.005079,-0.6567,-1.1680,-0.5744,25,-359,-334
386,2026-04-07T10:50:05.445Z,1775559005805,0.998230,-0.005746,-0.010263,-0.005086,-0.6514,-1.1774,-0.5752,25,-360,-335
387,2026-04-07T10:50:05.515Z,1775559005873,0.998229,-0.005744,-0.010348,-0.005081,-0.6512,-1.1871,-0.5745,25,-358,-333
388,2026-04-07T10:50:05.547Z,1775559005908,0.998229,-0.005839,-0.010379,-0.005065,-0.6620,-1.1907,-0.5726,25,-361,-336
389,2026-04-07T10:50:05.607Z,1775559005968,0.998229,-0.005788,-0.010370,-0.005055,-0.6562,-1.1896,-0.5715,25,-361,-336
390,2026-04-07T10:50:05.636Z,1775559005996,0.998229,-0.005786,-0.010411,-0.005028,-0.6560,-1.1943,-0.5684,25,-360,-335
391,2026-04-07T10:50:05.717Z,1775559006077,0.998229,-0.005778,-0.010356,-0.005022,-0.6551,-1.1880,-0.5677,25,-360,-335
392,2026-04-07T10:50:05.746Z,1775559006106,0.998229,-0.005774,-0.010379,-0.005029,-0.6547,-1.1907,-0.5685,25,-360,-335
393,2026-04-07T10:50:05.808Z,1775559006169,0.998229,-0.005752,-0.010429,-0.005032,-0.6521,-1.1964,-0.5689,25,-361,-336
394,2026-04-07T10:50:05.838Z,1775559006199,0.998229,-0.005750,-0.010422,-0.005031,-0.6519,-1.1956,-0.5688,25,-361,-336
395,2026-04-07T10:50:05.909Z,1775559006268,0.998228,-0.005783,-0.010485,-0.005027,-0.6556,-1.2028,-0.5682,25,-359,-334
396,2026-04-07T10:50:05.939Z,1775559006297,0.998228,-0.005763,-0.010455,-0.005026,-0.6534,-1.1993,-0.5681,25,-358,-333
397,2026-04-07T10:50:06.011Z,1775559006371,0.998229,-0.005771,-0.010409,-0.005030,-0.6543,-1.1941,-0.5686,25,-360,-335
398,2026-04-07T10:50:06.055Z,1775559006407,0.998230,-0.005793,-0.010327,-0.005008,-0.6569,-1.1847,-0.5661,25,-352,-327
399,2026-04-07T10:50:06.115Z,1775559006473,0.998229,-0.005728,-0.010378,-0.005020,-0.6494,-1.1905,-0.5676,25,-358,-333
400,2026-04-07T10:50:06.150Z,1775559006509,0.998230,-0.005746,-0.010324,-0.005011,-0.6515,-1.1843,-0.5665,25,-359,-334
401,2026-04-07T10:50:06.215Z,1775559006575,0.998230,-0.005751,-0.010341,-0.005004,-0.6521,-1.1863,-0.5657,25,-360,-335
402,2026-04-07T10:50:06.254Z,1775559006612,0.998230,-0.005824,-0.010321,-0.005011,-0.6604,-1.1840,-0.5664,25,-358,-333
403,2026-04-07T10:50:06.286Z,1775559006646,0.998229,-0.005896,-0.010359,-0.005008,-0.6687,-1.1884,-0.5660,25,-360,-335
404,2026-04-07T10:50:06.363Z,1775559006721,0.998229,-0.005926,-0.010336,-0.005026,-0.6721,-1.1858,-0.5680,25,-358,-333
405,2026-04-07T10:50:06.401Z,1775559006754,0.998228,-0.005925,-0.010357,-0.005019,-0.6720,-1.1882,-0.5672,25,-353,-328
406,2026-04-07T10:50:06.432Z,1775559006793,0.998228,-0.005896,-0.010397,-0.005016,-0.6686,-1.1928,-0.5669,25,-361,-336
407,2026-04-07T10:50:06.514Z,1775559006873,0.998230,-0.005796,-0.010319,-0.005016,-0.6572,-1.1838,-0.5671,25,-359,-334
408,2026-04-07T10:50:06.542Z,1775559006902,0.998230,-0.005798,-0.010322,-0.005022,-0.6574,-1.1841,-0.5677,25,-360,-335
409,2026-04-07T10:50:06.830Z,1775559007189,0.998229,-0.005797,-0.010357,-0.005021,-0.6573,-1.1881,-0.5676,20,-359,-339
410,2026-04-07T10:50:06.833Z,1775559007189,0.998229,-0.005803,-0.010339,-0.005029,-0.6580,-1.1861,-0.5685,20,-356,-336
411,2026-04-07T10:50:06.836Z,1775559007189,0.998229,-0.005776,-0.010348,-0.005048,-0.6549,-1.1871,-0.5707,20,-353,-333
412,2026-04-07T10:50:06.839Z,1775559007189,0.998230,-0.005696,-0.010356,-0.005036,-0.6457,-1.1880,-0.5694,20,-350,-330
413,2026-04-07T10:50:06.841Z,1775559007189,0.998230,-0.005779,-0.010281,-0.005039,-0.6553,-1.1795,-0.5697,20,-348,-328
414,2026-04-07T10:50:06.855Z,1775559007214,0.998229,-0.005802,-0.010345,-0.005048,-0.6579,-1.1868,-0.5707,20,-359,-339
415,2026-04-07T10:50:06.909Z,1775559007268,0.998229,-0.005771,-0.010353,-0.005035,-0.6543,-1.1877,-0.5692,20,-359,-339
416,2026-04-07T10:50:06.939Z,1775559007298,0.998229,-0.005845,-0.010383,-0.005046,-0.6628,-1.1912,-0.5704,20,-359,-339
417,2026-04-07T10:50:07.011Z,1775559007372,0.998229,-0.005857,-0.010349,-0.005058,-0.6641,-1.1873,-0.5718,20,-361,-341
418,2026-04-07T10:50:07.037Z,1775559007398,0.998227,-0.005857,-0.010498,-0.005043,-0.6641,-1.2043,-0.5700,20,-361,-341
419,2026-04-07T10:50:07.115Z,1775559007473,0.998227,-0.005864,-0.010506,-0.005045,-0.6649,-1.2052,-0.5702,20,-358,-338
420,2026-04-07T10:50:07.142Z,1775559007502,0.998229,-0.005780,-0.010391,-0.005049,-0.6553,-1.1920,-0.5708,20,-360,-340
421,2026-04-07T10:50:07.219Z,1775559007578,0.998229,-0.005859,-0.010330,-0.005050,-0.6644,-1.1851,-0.5709,20,-359,-339
422,2026-04-07T10:50:07.255Z,1775559007615,0.998230,-0.005793,-0.010259,-0.005059,-0.6569,-1.1770,-0.5720,20,-360,-340
423,2026-04-07T10:50:07.290Z,1775559007649,0.998231,-0.005733,-0.010203,-0.005066,-0.6500,-1.1705,-0.5729,20,-359,-339
424,2026-04-07T10:50:07.360Z,1775559007720,0.998230,-0.005793,-0.010230,-0.005060,-0.6569,-1.1736,-0.5721,20,-360,-340
425,2026-04-07T10:50:07.395Z,1775559007755,0.998231,-0.005796,-0.010221,-0.005051,-0.6572,-1.1726,-0.5711,20,-360,-340
426,2026-04-07T10:50:07.456Z,1775559007817,0.998230,-0.005845,-0.010260,-0.005056,-0.6628,-1.1771,-0.5716,20,-361,-341
427,2026-04-07T10:50:07.487Z,1775559007848,0.998230,-0.005868,-0.010225,-0.005057,-0.6655,-1.1731,-0.5717,20,-361,-341
428,2026-04-07T10:50:07.557Z,1775559007918,0.998230,-0.005851,-0.010203,-0.005041,-0.6635,-1.1706,-0.5699,20,-361,-341
429,2026-04-07T10:50:07.588Z,1775559007948,0.998230,-0.005966,-0.010227,-0.005024,-0.6767,-1.1734,-0.5678,20,-360,-340
430,2026-04-07T10:50:07.958Z,1775559008316,0.998230,-0.006007,-0.010192,-0.005025,-0.6814,-1.1694,-0.5679,20,-358,-338
431,2026-04-07T10:50:07.961Z,1775559008316,0.998231,-0.005919,-0.010134,-0.005033,-0.6714,-1.1627,-0.5690,20,-355,-335
432,2026-04-07T10:50:07.965Z,1775559008316,0.998231,-0.005914,-0.010117,-0.005029,-0.6708,-1.1608,-0.5685,20,-351,-331
433,2026-04-07T10:50:07.968Z,1775559008316,0.998231,-0.005820,-0.010166,-0.005033,-0.6600,-1.1663,-0.5691,20,-348,-328
434,2026-04-07T10:50:07.971Z,1775559008317,0.998231,-0.005690,-0.010188,-0.005045,-0.6451,-1.1688,-0.5706,20,-346,-326
435,2026-04-07T10:50:07.974Z,1775559008317,0.998231,-0.005650,-0.010234,-0.005041,-0.6405,-1.1740,-0.5701,20,-343,-323
436,2026-04-07T10:50:07.977Z,1775559008317,0.998231,-0.005716,-0.010249,-0.005038,-0.6481,-1.1758,-0.5697,20,-340,-320
437,2026-04-07T10:50:07.984Z,1775559008343,0.998231,-0.005799,-0.010152,-0.005046,-0.6576,-1.1647,-0.5706,20,-359,-339
438,2026-04-07T10:50:08.066Z,1775559008424,0.998231,-0.005835,-0.010155,-0.005053,-0.6617,-1.1651,-0.5713,20,-358,-338
439,2026-04-07T10:50:08.099Z,1775559008459,0.998231,-0.005781,-0.010193,-0.005057,-0.6555,-1.1694,-0.5718,20,-360,-340
440,2026-04-07T10:50:08.160Z,1775559008520,0.998230,-0.005802,-0.010257,-0.005064,-0.6579,-1.1767,-0.5726,20,-360,-340
441,2026-04-07T10:50:08.196Z,1775559008552,0.998229,-0.005857,-0.010273,-0.005074,-0.6642,-1.1786,-0.5736,20,-356,-336
442,2026-04-07T10:50:08.261Z,1775559008621,0.998229,-0.005821,-0.010354,-0.005060,-0.6600,-1.1878,-0.5720,20,-360,-340
443,2026-04-07T10:50:08.291Z,1775559008651,0.998229,-0.005748,-0.010386,-0.005046,-0.6517,-1.1914,-0.5705,20,-360,-340
444,2026-04-07T10:50:08.369Z,1775559008728,0.998230,-0.005670,-0.010362,-0.005046,-0.6427,-1.1887,-0.5706,20,-359,-339
445,2026-04-07T10:50:08.403Z,1775559008763,0.998230,-0.005687,-0.010369,-0.005059,-0.6447,-1.1895,-0.5721,20,-360,-340
446,2026-04-07T10:50:08.466Z,1775559008824,0.998230,-0.005678,-0.010287,-0.005051,-0.6437,-1.1801,-0.5712,20,-358,-338
447,2026-04-07T10:50:08.496Z,1775559008856,0.998230,-0.005664,-0.010321,-0.005057,-0.6421,-1.1840,-0.5719,20,-360,-340
448,2026-04-07T10:50:08.571Z,1775559008932,0.998230,-0.005714,-0.010322,-0.005064,-0.6478,-1.1841,-0.5726,20,-361,-341
449,2026-04-07T10:50:08.600Z,1775559008959,0.998230,-0.005683,-0.010307,-0.005088,-0.6442,-1.1824,-0.5754,20,-359,-339
450,2026-04-07T10:50:08.666Z,1775559009025,0.998231,-0.005770,-0.010147,-0.005085,-0.6543,-1.1641,-0.5751,20,-359,-339
451,2026-04-07T10:50:08.697Z,1775559009056,0.998231,-0.005670,-0.010234,-0.005089,-0.6428,-1.1740,-0.5756,20,-359,-339
452,2026-04-07T10:50:08.769Z,1775559009127,0.998231,-0.005580,-0.010232,-0.005084,-0.6325,-1.1738,-0.5751,20,-358,-338
453,2026-04-07T10:50:08.801Z,1775559009161,0.998232,-0.005583,-0.010223,-0.005085,-0.6328,-1.1727,-0.5753,20,-360,-340
454,2026-04-07T10:50:08.867Z,1775559009227,0.998232,-0.005568,-0.010188,-0.005077,-0.6311,-1.1687,-0.5744,20,-360,-340
455,2026-04-07T10:50:08.897Z,1775559009257,0.998232,-0.005604,-0.010167,-0.005080,-0.6353,-1.1663,-0.5747,20,-360,-340
456,2026-04-07T10:50:08.966Z,1775559009327,0.998231,-0.005645,-0.010197,-0.005079,-0.6399,-1.1698,-0.5745,20,-361,-341
457,2026-04-07T10:50:08.994Z,1775559009354,0.998231,-0.005610,-0.010228,-0.005063,-0.6359,-1.1733,-0.5727,20,-360,-340
458,2026-04-07T10:50:09.060Z,1775559009419,0.998231,-0.005636,-0.010273,-0.005061,-0.6389,-1.1785,-0.5724,20,-359,-339
459,2026-04-07T10:50:09.098Z,1775559009458,0.998230,-0.005761,-0.010264,-0.005064,-0.6532,-1.1775,-0.5726,20,-360,-340
460,2026-04-07T10:50:09.166Z,1775559009526,0.998230,-0.005742,-0.010321,-0.005048,-0.6510,-1.1840,-0.5708,20,-360,-340
461,2026-04-07T10:50:09.197Z,1775559009557,0.998229,-0.005708,-0.010408,-0.005066,-0.6470,-1.1940,-0.5728,20,-360,-340
462,2026-04-07T10:50:09.260Z,1775559009618,0.998229,-0.005762,-0.010333,-0.005073,-0.6533,-1.1854,-0.5736,20,-358,-338
463,2026-04-07T10:50:09.287Z,1775559009648,0.998230,-0.005764,-0.010267,-0.005073,-0.6535,-1.1779,-0.5736,20,-361,-341
464,2026-04-07T10:50:09.359Z,1775559009719,0.998230,-0.005806,-0.010220,-0.005080,-0.6583,-1.1725,-0.5744,20,-360,-340
465,2026-04-07T10:50:09.389Z,1775559009750,0.998230,-0.005790,-0.010238,-0.005108,-0.6565,-1.1746,-0.5776,20,-361,-341
466,2026-04-07T10:50:09.467Z,1775559009825,0.998231,-0.005778,-0.010161,-0.005123,-0.6551,-1.1658,-0.5794,20,-358,-338
467,2026-04-07T10:50:09.493Z,1775559009853,0.998230,-0.005863,-0.010175,-0.005115,-0.6649,-1.1674,-0.5784,20,-360,-340
468,2026-04-07T10:50:09.569Z,1775559009928,0.998229,-0.005828,-0.010276,-0.005097,-0.6608,-1.1789,-0.5763,20,-359,-339
469,2026-04-07T10:50:09.606Z,1775559009957,0.998229,-0.005876,-0.010330,-0.005100,-0.6663,-1.1852,-0.5766,20,-351,-331
470,2026-04-07T10:50:09.666Z,1775559010026,0.998228,-0.005912,-0.010346,-0.005102,-0.6704,-1.1870,-0.5767,20,-360,-340
471,2026-04-07T10:50:09.697Z,1775559010058,0.998229,-0.005874,-0.010266,-0.005088,-0.6661,-1.1778,-0.5752,20,-361,-341
472,2026-04-07T10:50:09.769Z,1775559010129,0.998229,-0.005950,-0.010306,-0.005072,-0.6748,-1.1824,-0.5733,20,-360,-340
473,2026-04-07T10:50:09.800Z,1775559010161,0.998228,-0.005983,-0.010310,-0.005072,-0.6786,-1.1829,-0.5732,20,-361,-341
474,2026-04-07T10:50:09.831Z,1775559010191,0.998228,-0.006001,-0.010294,-0.005069,-0.6806,-1.1811,-0.5729,20,-360,-340
475,2026-04-07T10:50:09.915Z,1775559010275,0.998229,-0.005973,-0.010291,-0.005074,-0.6774,-1.1807,-0.5735,20,-360,-340
476,2026-04-07T10:50:09.946Z,1775559010306,0.998228,-0.006023,-0.010319,-0.005074,-0.6831,-1.1840,-0.5734,20,-360,-340
477,2026-04-07T10:50:10.018Z,1775559010378,0.998228,-0.006027,-0.010342,-0.005092,-0.6835,-1.1866,-0.5755,20,-360,-340
478,2026-04-07T10:50:10.045Z,1775559010405,0.998228,-0.005976,-0.010381,-0.005096,-0.6777,-1.1910,-0.5759,20,-360,-340
479,2026-04-07T10:50:10.115Z,1775559010473,0.998228,-0.005930,-0.010361,-0.005103,-0.6724,-1.1887,-0.5768,20,-358,-338
480,2026-04-07T10:50:10.145Z,1775559010504,0.998228,-0.005940,-0.010341,-0.005099,-0.6736,-1.1864,-0.5764,20,-359,-339
481,2026-04-07T10:50:10.208Z,1775559010568,0.998228,-0.005902,-0.010398,-0.005096,-0.6692,-1.1929,-0.5760,20,-360,-340
482,2026-04-07T10:50:10.244Z,1775559010605,0.998228,-0.005862,-0.010365,-0.005092,-0.6647,-1.1891,-0.5756,20,-361,-341
483,2026-04-07T10:50:10.317Z,1775559010677,0.998229,-0.005903,-0.010299,-0.005089,-0.6694,-1.1816,-0.5753,20,-360,-340
484,2026-04-07T10:50:10.351Z,1775559010711,0.998229,-0.005802,-0.010319,-0.005092,-0.6578,-1.1838,-0.5757,20,-360,-340
485,2026-04-07T10:50:10.387Z,1775559010745,0.998230,-0.005729,-0.010317,-0.005095,-0.6495,-1.1836,-0.5762,20,-358,-338
486,2026-04-07T10:50:10.467Z,1775559010827,0.998229,-0.005835,-0.010310,-0.005082,-0.6616,-1.1828,-0.5746,20,-360,-340
487,2026-04-07T10:50:10.505Z,1775559010866,0.998229,-0.005844,-0.010283,-0.005077,-0.6627,-1.1797,-0.5740,20,-361,-341
488,2026-04-07T10:50:10.540Z,1775559010899,0.998228,-0.005854,-0.010368,-0.005070,-0.6638,-1.1895,-0.5731,20,-359,-339
489,2026-04-07T10:50:10.612Z,1775559010971,0.998229,-0.005897,-0.010332,-0.005063,-0.6687,-1.1854,-0.5723,20,-359,-339
490,2026-04-07T10:50:10.639Z,1775559010999,0.998229,-0.005884,-0.010326,-0.005075,-0.6672,-1.1847,-0.5737,20,-360,-340
491,2026-04-07T10:50:10.709Z,1775559011070,0.998228,-0.005799,-0.010420,-0.005079,-0.6574,-1.1954,-0.5742,20,-361,-341
492,2026-04-07T10:50:10.739Z,1775559011099,0.998228,-0.005821,-0.010442,-0.005074,-0.6599,-1.1979,-0.5736,20,-360,-340
493,2026-04-07T10:50:10.812Z,1775559011172,0.998228,-0.005856,-0.010440,-0.005078,-0.6639,-1.1977,-0.5740,20,-360,-340
494,2026-04-07T10:50:10.841Z,1775559011201,0.998227,-0.005857,-0.010455,-0.005089,-0.6640,-1.1994,-0.5752,20,-360,-340
495,2026-04-07T10:50:10.930Z,1775559011290,0.998228,-0.005886,-0.010359,-0.005084,-0.6674,-1.1885,-0.5747,20,-360,-340
496,2026-04-07T10:50:10.961Z,1775559011320,0.998228,-0.005968,-0.010306,-0.005085,-0.6768,-1.1824,-0.5747,20,-359,-339
497,2026-04-07T10:50:10.994Z,1775559011354,0.998227,-0.005914,-0.010430,-0.005086,-0.6706,-1.1966,-0.5748,20,-360,-340
498,2026-04-07T10:50:11.068Z,1775559011426,0.998228,-0.005827,-0.010442,-0.005088,-0.6606,-1.1979,-0.5752,20,-358,-338
499,2026-04-07T10:50:11.093Z,1775559011454,0.998228,-0.005786,-0.010483,-0.005079,-0.6559,-1.2026,-0.5742,20,-361,-341
500,2026-04-07T10:50:11.165Z,1775559011526,0.998228,-0.005758,-0.010477,-0.005087,-0.6527,-1.2019,-0.5751,20,-361,-341
501,2026-04-07T10:50:11.199Z,1775559011559,0.998229,-0.005806,-0.010365,-0.005080,-0.6583,-1.1891,-0.5743,20,-360,-340
502,2026-04-07T10:50:11.265Z,1775559011626,0.998229,-0.005777,-0.010331,-0.005076,-0.6550,-1.1852,-0.5739,20,-361,-341
503,2026-04-07T10:50:11.297Z,1775559011658,0.998230,-0.005740,-0.010300,-0.005091,-0.6507,-1.1816,-0.5757,20,-361,-341
504,2026-04-07T10:50:11.364Z,1775559011724,0.998229,-0.005757,-0.010322,-0.005112,-0.6526,-1.1842,-0.5781,20,-360,-340
